{"code": 200, "data": [{"location": "Assam", "country_code": "in", "latitude": 26.2006043, "longitude": 92.9375739, "confirmed": 8227, "dead": 12, "recovered": 5647, "updated": "2020-07-01 06:48:22.696131+00:00"}, {"location": "New York", "country_code": "us", "latitude": 40.7127753, "longitude": -74.0059728, "confirmed": 429617, "dead": 32414, "recovered": null, "updated": "2020-08-15 11:16:46.224747+00:00"}, {"location": "Colorado", "country_code": "us", "latitude": 39.5500507, "longitude": -105.7820674, "confirmed": 52868, "dead": 1897, "recovered": null, "updated": "2020-08-15 11:16:46.224747+00:00"}, {"location": "Illinois", "country_code": "us", "latitude": 40.6331249, "longitude": -89.3985283, "confirmed": 206505, "dead": 7959, "recovered": null, "updated": "2020-08-15 11:16:46.224747+00:00"}, {"location": "Kentucky", "country_code": "us", "latitude": 37.8393332, "longitude": -84.2700179, "confirmed": 40677, "dead": 829, "recovered": null, "updated": "2020-08-15 11:16:46.224747+00:00"}, {"location": "Northwest Territories", "country_code": "ca", "latitude": 64.8255441, "longitude": -124.8457334, "confirmed": 5, "dead": 0, "recovered": null, "updated": "2020-08-15 00:00:00+00:00"}, {"location": "Oregon", "country_code": "us", "latitude": 43.8041334, "longitude": -120.5542012, "confirmed": 23018, "dead": 386, "recovered": 0, "updated": "2020-08-14 11:16:47.650599+00:00"}, {"location": "Quebec", "country_code": "ca", "latitude": 52.9399159, "longitude": -73.5491361, "confirmed": 61084, "dead": 5719, "recovered": null, "updated": "2020-08-15 00:00:00+00:00"}, {"location": "Andaman and Nicobar Islands", "country_code": "in", "latitude": 11.7400867, "longitude": 92.6586401, "confirmed": 197, "dead": 0, "recovered": 50, "updated": "2020-07-01 06:48:22.696131+00:00"}, {"location": "Maine", "country_code": "us", "latitude": 45.253783, "longitude": -69.4454689, "confirmed": 4144, "dead": 127, "recovered": null, "updated": "2020-08-15 11:16:46.224747+00:00"}, {"location": "Newfoundland and Labrador", "country_code": "ca", "latitude": 53.1355091, "longitude": -57.6604364, "confirmed": 268, "dead": 3, "recovered": null, "updated": "2020-08-15 00:00:00+00:00"}, {"location": "Nova Scotia", "country_code": "ca", "latitude": 44.68198659999999, "longitude": -63.744311, "confirmed": 1074, "dead": 64, "recovered": null, "updated": "2020-08-15 00:00:00+00:00"}, {"location": "Hamburg", "country_code": "de", "latitude": 53.5510846, "longitude": 9.9936819, "confirmed": 5878, "dead": 264, "recovered": null, "updated": "2020-08-16 11:19:06.509040+00:00"}, {"location": "Nordrhein-Westfalen", "country_code": "de", "latitude": 51.43323669999999, "longitude": 7.661593799999999, "confirmed": 54390, "dead": 1777, "recovered": null, "updated": "2020-08-16 11:19:06.567451+00:00"}, {"location": "\u00cele-de-France", "country_code": "fr", "latitude": 48.8499198, "longitude": 2.6370411, "confirmed": 40250, "dead": 7628, "recovered": 30058, "updated": "2020-08-16 11:18:38.807120+00:00"}, {"location": "Arkansas", "country_code": "us", "latitude": 35.20105, "longitude": -91.8318334, "confirmed": 52392, "dead": 587, "recovered": null, "updated": "2020-08-16 11:15:27.654654+00:00"}, {"location": "Rond\u00f4nia", "country_code": "br", "latitude": -11.5057341, "longitude": -63.580611, "confirmed": 11224, "dead": 296, "recovered": 3700, "updated": "2020-06-12 00:00:00+00:00"}, {"location": "Niedersachsen**", "country_code": "de", "latitude": 52.6367036, "longitude": 9.8450766, "confirmed": 13136, "dead": 618, "recovered": null, "updated": "2020-06-22 08:34:45.398910+00:00"}, {"location": "West Bengal", "country_code": "in", "latitude": 22.9867569, "longitude": 87.8549755, "confirmed": 18559, "dead": 668, "recovered": 12130, "updated": "2020-07-01 06:48:22.696131+00:00"}, {"location": "California", "country_code": "us", "latitude": 36.778261, "longitude": -119.4179324, "confirmed": 621981, "dead": 11229, "recovered": null, "updated": "2020-08-15 11:16:46.224747+00:00"}, {"location": "Esp\u00edrito Santo", "country_code": "br", "latitude": -19.1834229, "longitude": -40.3088626, "confirmed": 25502, "dead": 999, "recovered": 13921, "updated": "2020-06-12 00:00:00+00:00"}, {"location": "Tocantins", "country_code": "br", "latitude": -10.17528, "longitude": -48.2982474, "confirmed": 6744, "dead": 128, "recovered": 3543, "updated": "2020-06-12 00:00:00+00:00"}, {"location": "Th\u00fcringen", "country_code": "de", "latitude": 51.0109892, "longitude": 10.845346, "confirmed": 3496, "dead": 186, "recovered": null, "updated": "2020-08-16 11:19:06.650459+00:00"}, {"location": "Rio Grande do Norte", "country_code": "br", "latitude": -5.402580299999999, "longitude": -36.954107, "confirmed": 131544, "dead": 514, "recovered": 1993, "updated": "2020-06-12 00:00:00+00:00"}, {"location": "Andhra Pradesh", "country_code": "in", "latitude": 15.9128998, "longitude": 79.7399875, "confirmed": 14595, "dead": 187, "recovered": 6511, "updated": "2020-07-01 06:48:22.696131+00:00"}, {"location": "Montana", "country_code": "us", "latitude": 46.8796822, "longitude": -110.3625658, "confirmed": 5663, "dead": 82, "recovered": null, "updated": "2020-08-15 11:16:46.224747+00:00"}, {"location": "New Hampshire", "country_code": "us", "latitude": 43.1938516, "longitude": -71.5723953, "confirmed": 6980, "dead": 423, "recovered": null, "updated": "2020-08-15 11:16:46.224747+00:00"}, {"location": "Delhi", "country_code": "in", "latitude": 28.7040592, "longitude": 77.10249019999999, "confirmed": 287360, "dead": 2742, "recovered": 58348, "updated": "2020-07-01 06:48:22.696131+00:00"}, {"location": "Baden-W\u00fcrttemberg**", "country_code": "de", "latitude": 48.6616037, "longitude": 9.3501336, "confirmed": 35272, "dead": 1824, "recovered": null, "updated": "2020-06-22 08:34:45.256351+00:00"}, {"location": "Sachsen**", "country_code": "de", "latitude": 51.1045407, "longitude": 13.2017384, "confirmed": 5408, "dead": 221, "recovered": null, "updated": "2020-06-22 08:34:45.470523+00:00"}, {"location": "Goa", "country_code": "in", "latitude": 15.2993265, "longitude": 74.12399599999999, "confirmed": 1315, "dead": 3, "recovered": 596, "updated": "2020-07-01 06:48:22.696131+00:00"}, {"location": "Sikkim", "country_code": "in", "latitude": 27.5329718, "longitude": 88.5122178, "confirmed": 189, "dead": 0, "recovered": 52, "updated": "2020-07-01 06:48:22.696131+00:00"}, {"location": "Cear\u00e1", "country_code": "br", "latitude": -5.4983977, "longitude": -39.3206241, "confirmed": 75784, "dead": 4812, "recovered": 53906, "updated": "2020-06-12 00:00:00+00:00"}, {"location": "Wyoming", "country_code": "us", "latitude": 43.0759678, "longitude": -107.2902839, "confirmed": 3227, "dead": 30, "recovered": null, "updated": "2020-08-15 11:16:46.224747+00:00"}, {"location": "Chandigarh", "country_code": "in", "latitude": 30.7333148, "longitude": 76.7794179, "confirmed": 11440, "dead": 6, "recovered": 364, "updated": "2020-07-01 06:48:22.696131+00:00"}, {"location": "Guam", "country_code": "us", "latitude": 13.4769474, "longitude": 144.7425932, "confirmed": 1471, "dead": 6, "recovered": null, "updated": "2020-08-15 11:16:46.224747+00:00"}, {"location": "Amazonas", "country_code": "br", "latitude": -3.4168427, "longitude": -65.8560646, "confirmed": 55111, "dead": 2429, "recovered": 44447, "updated": "2020-06-12 00:00:00+00:00"}, {"location": "Mato Grosso do Sul", "country_code": "br", "latitude": -20.7722295, "longitude": -54.7851531, "confirmed": 3001, "dead": 28, "recovered": 1552, "updated": "2020-06-12 00:00:00+00:00"}, {"location": "Dadar Nagar Haveli", "country_code": "in", "latitude": 20.1808672, "longitude": 73.0169135, "confirmed": 2, "dead": 0, "recovered": 0, "updated": "2020-05-30 03:35:09.086737+00:00"}, {"location": "New Jersey", "country_code": "us", "latitude": 40.0583238, "longitude": -74.4056612, "confirmed": 189281, "dead": 15910, "recovered": null, "updated": "2020-08-15 11:16:46.224747+00:00"}, {"location": "Schleswig-Holstein", "country_code": "de", "latitude": 54.21936720000001, "longitude": 9.696116700000001, "confirmed": 3782, "dead": 158, "recovered": null, "updated": "2020-08-16 11:19:06.638320+00:00"}, {"location": "Corsica", "country_code": "fr", "latitude": 42.0396042, "longitude": 9.012892599999999, "confirmed": 319, "dead": 59, "recovered": 256, "updated": "2020-08-16 11:18:38.773437+00:00"}, {"location": "Chhattisgarh", "country_code": "in", "latitude": 21.2786567, "longitude": 81.8661442, "confirmed": 2860, "dead": 13, "recovered": 2250, "updated": "2020-07-01 06:48:22.696131+00:00"}, {"location": "Northern Mariana Islands", "country_code": "us", "latitude": 15.0979, "longitude": 145.6739, "confirmed": 50, "dead": 2, "recovered": null, "updated": "2020-08-15 11:16:46.224747+00:00"}, {"location": "Niedersachsen*", "country_code": "de", "latitude": 52.6367036, "longitude": 9.8450766, "confirmed": 11578, "dead": 572, "recovered": null, "updated": "2020-05-26 06:33:37.421952+00:00"}, {"location": "Amap\u00e1", "country_code": "br", "latitude": 0.9019925, "longitude": -52.0029565, "confirmed": 15683, "dead": 312, "recovered": 7253, "updated": "2020-06-12 00:00:00+00:00"}, {"location": "Saskatchewan", "country_code": "ca", "latitude": 52.9399159, "longitude": -106.4508639, "confirmed": 1566, "dead": 21, "recovered": null, "updated": "2020-08-15 00:00:00+00:00"}, {"location": "Bahia", "country_code": "br", "latitude": -12.579738, "longitude": -41.7007272, "confirmed": 34665, "dead": 1039, "recovered": 14976, "updated": "2020-06-12 00:00:00+00:00"}, {"location": "New Brunswick", "country_code": "ca", "latitude": 46.5653163, "longitude": -66.46191639999999, "confirmed": 184, "dead": 2, "recovered": null, "updated": "2020-08-15 00:00:00+00:00"}, {"location": "Manitoba", "country_code": "ca", "latitude": 53.7608608, "longitude": -98.8138762, "confirmed": 663, "dead": 9, "recovered": null, "updated": "2020-08-15 00:00:00+00:00"}, {"location": "Pays de la Loire", "country_code": "fr", "latitude": 47.7632836, "longitude": -0.3299687, "confirmed": 2914, "dead": 483, "recovered": 2326, "updated": "2020-08-16 11:18:38.778751+00:00"}, {"location": "British Columbia", "country_code": "ca", "latitude": 53.7266683, "longitude": -127.6476205, "confirmed": 4358, "dead": 196, "recovered": null, "updated": "2020-08-15 00:00:00+00:00"}, {"location": "Normandie", "country_code": "fr", "latitude": 48.87987039999999, "longitude": 0.1712529, "confirmed": 2390, "dead": 445, "recovered": 1859, "updated": "2020-08-16 11:18:38.784211+00:00"}, {"location": "Minnesota", "country_code": "us", "latitude": 46.729553, "longitude": -94.6858998, "confirmed": 64459, "dead": 1745, "recovered": null, "updated": "2020-08-15 11:16:46.224747+00:00"}, {"location": "New Mexico", "country_code": "us", "latitude": 34.5199402, "longitude": -105.8700901, "confirmed": 23302, "dead": 711, "recovered": null, "updated": "2020-08-15 11:16:46.224747+00:00"}, {"location": "Rhode Island", "country_code": "us", "latitude": 41.5800945, "longitude": -71.4774291, "confirmed": 20335, "dead": 1021, "recovered": null, "updated": "2020-08-15 11:16:46.224747+00:00"}, {"location": "Nunavut", "country_code": "ca", "latitude": 70.2997711, "longitude": -83.10757699999999, "confirmed": 0, "dead": 0, "recovered": null, "updated": "2020-08-15 00:00:00+00:00"}, {"location": "Vermont", "country_code": "us", "latitude": 44.5588028, "longitude": -72.57784149999999, "confirmed": 1509, "dead": 58, "recovered": null, "updated": "2020-08-15 11:16:46.224747+00:00"}, {"location": "Mississippi", "country_code": "us", "latitude": 32.3546679, "longitude": -89.3985283, "confirmed": 71755, "dead": 2080, "recovered": null, "updated": "2020-08-15 11:16:46.224747+00:00"}, {"location": "West Virginia", "country_code": "us", "latitude": 38.5976262, "longitude": -80.4549026, "confirmed": 8462, "dead": 160, "recovered": 0, "updated": "2020-08-14 11:16:47.650599+00:00"}, {"location": "Bihar", "country_code": "in", "latitude": 25.0960742, "longitude": 85.31311939999999, "confirmed": 1110043, "dead": 67, "recovered": 7687, "updated": "2020-07-01 06:48:22.696131+00:00"}, {"location": "Wisconsin", "country_code": "us", "latitude": 43.7844397, "longitude": -88.7878678, "confirmed": 69560, "dead": 1047, "recovered": null, "updated": "2020-08-15 11:16:46.224747+00:00"}, {"location": "Alberta", "country_code": "ca", "latitude": 53.9332706, "longitude": -116.5765035, "confirmed": 12053, "dead": 221, "recovered": null, "updated": "2020-08-15 00:00:00+00:00"}, {"location": "Nebraska", "country_code": "us", "latitude": 41.4925374, "longitude": -99.9018131, "confirmed": 30241, "dead": 363, "recovered": null, "updated": "2020-08-15 11:16:46.224747+00:00"}, {"location": "Acre", "country_code": "br", "latitude": -9.0237964, "longitude": -70.81199529999999, "confirmed": 9295, "dead": 254, "recovered": 4775, "updated": "2020-06-12 00:00:00+00:00"}, {"location": "Virgin Islands", "country_code": "us", "latitude": 18.335765, "longitude": -64.896335, "confirmed": 734, "dead": 9, "recovered": null, "updated": "2020-08-15 11:16:46.224747+00:00"}, {"location": "Saarland", "country_code": "de", "latitude": 49.3964234, "longitude": 7.0229607, "confirmed": 3000, "dead": 174, "recovered": null, "updated": "2020-08-16 11:19:06.598182+00:00"}, {"location": "Baden-W\u00fcrttemberg", "country_code": "de", "latitude": 48.6616037, "longitude": 9.3501336, "confirmed": 38480, "dead": 1859, "recovered": null, "updated": "2020-08-16 11:19:06.437805+00:00"}, {"location": "South Dakota", "country_code": "us", "latitude": 43.9695148, "longitude": -99.9018131, "confirmed": 10118, "dead": 152, "recovered": null, "updated": "2020-08-15 11:16:46.224747+00:00"}, {"location": "Bretagne", "country_code": "fr", "latitude": 48.2020471, "longitude": -2.9326435, "confirmed": 1691, "dead": 268, "recovered": 1360, "updated": "2020-08-16 11:18:38.769404+00:00"}, {"location": "Kansas", "country_code": "us", "latitude": 39.011902, "longitude": -98.4842465, "confirmed": 34294, "dead": 406, "recovered": null, "updated": "2020-08-15 11:16:46.224747+00:00"}, {"location": "Baden-W\u00fcrttemberg*", "country_code": "de", "latitude": 48.6616037, "longitude": 9.3501336, "confirmed": 36819, "dead": 1841, "recovered": null, "updated": "2020-07-28 06:33:11.315251+00:00"}, {"location": "Maryland", "country_code": "us", "latitude": 39.0457549, "longitude": -76.64127119999999, "confirmed": 100237, "dead": 3636, "recovered": null, "updated": "2020-08-15 11:16:46.224747+00:00"}, {"location": "Haryana", "country_code": "in", "latitude": 29.0587757, "longitude": 76.085601, "confirmed": 114548, "dead": 236, "recovered": 9972, "updated": "2020-07-01 06:48:22.696131+00:00"}, {"location": "Grand Est", "country_code": "fr", "latitude": 48.699803, "longitude": 6.1878074, "confirmed": 17106, "dead": 3639, "recovered": 12933, "updated": "2020-08-16 11:18:38.785124+00:00"}, {"location": "Alagoas", "country_code": "br", "latitude": -9.5713058, "longitude": -36.7819505, "confirmed": 20031, "dead": 701, "recovered": 13094, "updated": "2020-06-12 00:00:00+00:00"}, {"location": "Bayern", "country_code": "de", "latitude": 48.7904472, "longitude": 11.4978895, "confirmed": 52888, "dead": 2631, "recovered": null, "updated": "2020-08-16 11:19:06.452610+00:00"}, {"location": "Sachsen*", "country_code": "de", "latitude": 51.1045407, "longitude": 13.2017384, "confirmed": 5512, "dead": 225, "recovered": null, "updated": "2020-07-28 06:33:11.428924+00:00"}, {"location": "Saarland*", "country_code": "de", "latitude": 49.3964234, "longitude": 7.0229607, "confirmed": 2812, "dead": 174, "recovered": null, "updated": "2020-07-13 06:31:56.812228+00:00"}, {"location": "Berlin", "country_code": "de", "latitude": 52.52000659999999, "longitude": 13.404954, "confirmed": 10238, "dead": 224, "recovered": null, "updated": "2020-08-16 11:19:06.467025+00:00"}, {"location": "Alaska", "country_code": "us", "latitude": 64.2008413, "longitude": -149.4936733, "confirmed": 4952, "dead": 26, "recovered": null, "updated": "2020-08-15 11:16:46.224747+00:00"}, {"location": "Mato Grosso", "country_code": "br", "latitude": -12.6818712, "longitude": -56.921099, "confirmed": 5390, "dead": 181, "recovered": 1792, "updated": "2020-06-12 00:00:00+00:00"}, {"location": "Himachal Pradesh", "country_code": "in", "latitude": 31.1048294, "longitude": 77.17339009999999, "confirmed": 953, "dead": 10, "recovered": 580, "updated": "2020-07-01 06:48:22.696131+00:00"}, {"location": "Connecticut", "country_code": "us", "latitude": 41.6032207, "longitude": -73.087749, "confirmed": 50897, "dead": 4453, "recovered": null, "updated": "2020-08-16 11:15:27.654654+00:00"}, {"location": "Missouri", "country_code": "us", "latitude": 37.9642529, "longitude": -91.8318334, "confirmed": 67400, "dead": 1431, "recovered": null, "updated": "2020-08-15 11:16:46.224747+00:00"}, {"location": "Nagaland", "country_code": "in", "latitude": 26.1584354, "longitude": 94.5624426, "confirmed": 459, "dead": 0, "recovered": 168, "updated": "2020-07-01 06:48:22.696131+00:00"}, {"location": "Nevada", "country_code": "us", "latitude": 38.8026097, "longitude": -116.419389, "confirmed": 60648, "dead": 1070, "recovered": null, "updated": "2020-08-15 11:16:46.224747+00:00"}, {"location": "Tennessee", "country_code": "us", "latitude": 35.5174913, "longitude": -86.5804473, "confirmed": 131747, "dead": 1345, "recovered": 0, "updated": "2020-08-14 11:16:47.650599+00:00"}, {"location": "Washington", "country_code": "us", "latitude": 47.7510741, "longitude": -120.7401385, "confirmed": 69137, "dead": 1843, "recovered": null, "updated": "2020-08-15 11:16:46.224747+00:00"}, {"location": "Par\u00e1", "country_code": "br", "latitude": -1.9981271, "longitude": -54.9306152, "confirmed": 66328, "dead": 4132, "recovered": 53724, "updated": "2020-06-12 00:00:00+00:00"}, {"location": "Hamburg*", "country_code": "de", "latitude": 53.5510846, "longitude": 9.9936819, "confirmed": 5230, "dead": 261, "recovered": null, "updated": "2020-07-13 06:31:56.749296+00:00"}, {"location": "Puerto Rico", "country_code": "us", "latitude": 18.4238478, "longitude": -66.0648787, "confirmed": 25695, "dead": 329, "recovered": null, "updated": "2020-08-15 11:16:46.224747+00:00"}, {"location": "Brandenburg", "country_code": "de", "latitude": 52.4125287, "longitude": 12.5316444, "confirmed": 3697, "dead": 169, "recovered": null, "updated": "2020-08-16 11:19:06.480694+00:00"}, {"location": "Mecklenburg-Vorpommern", "country_code": "de", "latitude": 53.6126505, "longitude": 12.4295953, "confirmed": 972, "dead": 20, "recovered": null, "updated": "2020-08-16 11:19:06.537553+00:00"}, {"location": "Indiana", "country_code": "us", "latitude": 40.2671941, "longitude": -86.1349019, "confirmed": 81561, "dead": 3128, "recovered": null, "updated": "2020-08-15 11:16:46.224747+00:00"}, {"location": "Iowa", "country_code": "us", "latitude": 41.8780025, "longitude": -93.097702, "confirmed": 52065, "dead": 975, "recovered": null, "updated": "2020-08-15 11:16:46.224747+00:00"}, {"location": "Pennsylvania", "country_code": "us", "latitude": 41.2033216, "longitude": -77.1945247, "confirmed": 128531, "dead": 7525, "recovered": null, "updated": "2020-08-15 11:16:46.224747+00:00"}, {"location": "Gujarat", "country_code": "in", "latitude": 22.258652, "longitude": 71.1923805, "confirmed": 232557, "dead": 1846, "recovered": 23662, "updated": "2020-07-01 06:48:22.696131+00:00"}, {"location": "Centre-Val de Loire", "country_code": "fr", "latitude": 47.7515686, "longitude": 1.6750631, "confirmed": 2979, "dead": 569, "recovered": 2349, "updated": "2020-08-16 11:18:38.770266+00:00"}, {"location": "Puducherry", "country_code": "in", "latitude": 11.9415915, "longitude": 79.8083133, "confirmed": 71114, "dead": 12, "recovered": 272, "updated": "2020-07-01 06:48:22.696131+00:00"}, {"location": "Massachusetts", "country_code": "us", "latitude": 42.4072107, "longitude": -71.3824374, "confirmed": 123199, "dead": 8826, "recovered": null, "updated": "2020-08-15 11:16:46.224747+00:00"}, {"location": "Minas Gerais", "country_code": "br", "latitude": -18.512178, "longitude": -44.5550308, "confirmed": 20106, "dead": 446, "recovered": 9822, "updated": "2020-06-12 00:00:00+00:00"}, {"location": "Bremen", "country_code": "de", "latitude": 53.07929619999999, "longitude": 8.8016936, "confirmed": 1841, "dead": 56, "recovered": null, "updated": "2020-08-16 11:19:06.494414+00:00"}, {"location": "Pernambuco", "country_code": "br", "latitude": -8.8137173, "longitude": -36.954107, "confirmed": 43872, "dead": 3694, "recovered": 25794, "updated": "2020-06-12 00:00:00+00:00"}, {"location": "Punjab", "country_code": "in", "latitude": 31.1471305, "longitude": 75.34121789999999, "confirmed": 51568, "dead": 144, "recovered": 3867, "updated": "2020-07-01 06:48:22.696131+00:00"}, {"location": "Ohio", "country_code": "us", "latitude": 40.4172871, "longitude": -82.90712300000001, "confirmed": 107674, "dead": 3824, "recovered": null, "updated": "2020-08-15 11:16:46.224747+00:00"}, {"location": "North Carolina", "country_code": "us", "latitude": 35.7595731, "longitude": -79.01929969999999, "confirmed": 143956, "dead": 2370, "recovered": null, "updated": "2020-08-15 11:16:46.224747+00:00"}, {"location": "Rio Grande do Sul", "country_code": "br", "latitude": -30.0346316, "longitude": -51.2176986, "confirmed": 14384, "dead": 337, "recovered": 11592, "updated": "2020-06-12 00:00:00+00:00"}, {"location": "Telengana", "country_code": "in", "latitude": 18.1124372, "longitude": 79.01929969999999, "confirmed": 221156, "dead": 67, "recovered": 1345, "updated": "2020-05-30 03:35:09.086737+00:00"}, {"location": "Maharashtra", "country_code": "in", "latitude": 19.7514798, "longitude": 75.7138884, "confirmed": 1274761, "dead": 7855, "recovered": 90911, "updated": "2020-07-01 06:48:22.696131+00:00"}, {"location": "Manipur", "country_code": "in", "latitude": 24.6637173, "longitude": 93.90626879999999, "confirmed": 11234, "dead": 0, "recovered": 553, "updated": "2020-07-01 06:48:22.696131+00:00"}, {"location": "Tripura", "country_code": "in", "latitude": 23.9408482, "longitude": 91.9881527, "confirmed": 1388, "dead": 1, "recovered": 1086, "updated": "2020-07-01 06:48:22.696131+00:00"}, {"location": "Uttarakhand", "country_code": "in", "latitude": 30.066753, "longitude": 79.01929969999999, "confirmed": 28181, "dead": 41, "recovered": 2231, "updated": "2020-07-01 06:48:22.696131+00:00"}, {"location": "Distrito Federal", "country_code": "br", "latitude": -15.7997654, "longitude": -47.8644715, "confirmed": 21396, "dead": 282, "recovered": 11825, "updated": "2020-06-12 00:00:00+00:00"}, {"location": "Arunachal Pradesh", "country_code": "in", "latitude": 28.2179994, "longitude": 94.7277528, "confirmed": 11191, "dead": 1, "recovered": 62, "updated": "2020-07-01 06:48:22.696131+00:00"}, {"location": "Goi\u00e1s", "country_code": "br", "latitude": -15.8270369, "longitude": -49.8362237, "confirmed": 7926, "dead": 206, "recovered": null, "updated": "2020-06-12 00:00:00+00:00"}, {"location": "Sergipe", "country_code": "br", "latitude": -10.5740934, "longitude": -37.3856581, "confirmed": 11534, "dead": 305, "recovered": 4732, "updated": "2020-06-12 00:00:00+00:00"}, {"location": "Santa Catarina", "country_code": "br", "latitude": -27.2423392, "longitude": -50.2188556, "confirmed": 13165, "dead": 191, "recovered": 8919, "updated": "2020-06-12 00:00:00+00:00"}, {"location": "Uttar Pradesh", "country_code": "in", "latitude": 26.8467088, "longitude": 80.9461592, "confirmed": 200492, "dead": 697, "recovered": 16084, "updated": "2020-07-01 06:48:22.696131+00:00"}, {"location": "Meghalaya", "country_code": "in", "latitude": 25.4670308, "longitude": 91.366216, "confirmed": 5002, "dead": 1, "recovered": 42, "updated": "2020-07-01 06:48:22.696131+00:00"}, {"location": "Rajasthan", "country_code": "in", "latitude": 27.0238036, "longitude": 74.21793260000001, "confirmed": 180104, "dead": 413, "recovered": 14220, "updated": "2020-07-01 06:48:22.696131+00:00"}, {"location": "Delaware", "country_code": "us", "latitude": 38.9108325, "longitude": -75.52766989999999, "confirmed": 16396, "dead": 593, "recovered": null, "updated": "2020-08-15 11:16:46.224747+00:00"}, {"location": "Oklahoma", "country_code": "us", "latitude": 35.0077519, "longitude": -97.092877, "confirmed": 47798, "dead": 657, "recovered": null, "updated": "2020-08-15 11:16:46.224747+00:00"}, {"location": "Occitanie", "country_code": "fr", "latitude": 43.8927232, "longitude": 3.2827625, "confirmed": 3592, "dead": 516, "recovered": 3008, "updated": "2020-08-16 11:18:38.766965+00:00"}, {"location": "Madhya Pradesh", "country_code": "in", "latitude": 22.9734229, "longitude": 78.6568942, "confirmed": 13593, "dead": 572, "recovered": 10395, "updated": "2020-07-01 06:48:22.696131+00:00"}, {"location": "Tamil Nadu", "country_code": "in", "latitude": 11.1271225, "longitude": 78.6568942, "confirmed": 190167, "dead": 1201, "recovered": 50074, "updated": "2020-07-01 06:48:22.696131+00:00"}, {"location": "Maranh\u00e3o", "country_code": "br", "latitude": -4.9609498, "longitude": -45.2744159, "confirmed": 57605, "dead": 1399, "recovered": 31569, "updated": "2020-06-12 00:00:00+00:00"}, {"location": "Mizoram", "country_code": "in", "latitude": 23.164543, "longitude": 92.9375739, "confirmed": 10860, "dead": 0, "recovered": 122, "updated": "2020-07-01 06:48:22.696131+00:00"}, {"location": "Odisha", "country_code": "in", "latitude": 20.9516658, "longitude": 85.0985236, "confirmed": 47065, "dead": 925, "recovered": 15189, "updated": "2020-07-01 06:48:22.696131+00:00"}, {"location": "District of Columbia", "country_code": "us", "latitude": 38.9071923, "longitude": -77.0368707, "confirmed": 13159, "dead": 597, "recovered": null, "updated": "2020-08-15 11:16:46.224747+00:00"}, {"location": "North Dakota", "country_code": "us", "latitude": 47.5514926, "longitude": -101.0020119, "confirmed": 8448, "dead": 125, "recovered": null, "updated": "2020-08-15 11:16:46.224747+00:00"}, {"location": "Nouvelle-Aquitaine", "country_code": "fr", "latitude": 45.7087182, "longitude": 0.626891, "confirmed": 2772, "dead": 429, "recovered": 2279, "updated": "2020-08-16 11:18:38.767891+00:00"}, {"location": "Para\u00edba", "country_code": "br", "latitude": -7.239960900000001, "longitude": -36.7819505, "confirmed": 26556, "dead": 610, "recovered": 5620, "updated": "2020-06-12 00:00:00+00:00"}, {"location": "Roraima", "country_code": "br", "latitude": 2.7375971, "longitude": -62.0750998, "confirmed": 6842, "dead": 197, "recovered": 1754, "updated": "2020-06-12 00:00:00+00:00"}, {"location": "S\u00e3o Paulo", "country_code": "br", "latitude": -23.5505199, "longitude": -46.63330939999999, "confirmed": 167900, "dead": 10368, "recovered": 49295, "updated": "2020-06-12 00:00:00+00:00"}, {"location": "Rio de Janeiro", "country_code": "br", "latitude": -22.9068467, "longitude": -43.1728965, "confirmed": 77784, "dead": 7417, "recovered": 61690, "updated": "2020-06-12 00:00:00+00:00"}, {"location": "Paran\u00e1", "country_code": "br", "latitude": -25.2520888, "longitude": -52.0215415, "confirmed": 8818, "dead": 302, "recovered": 3044, "updated": "2020-06-12 00:00:00+00:00"}, {"location": "Piau\u00ed", "country_code": "br", "latitude": -7.718340100000001, "longitude": -42.72892359999999, "confirmed": 9825, "dead": 335, "recovered": 641, "updated": "2020-06-12 00:00:00+00:00"}, {"location": "Bremen*", "country_code": "de", "latitude": 53.07929619999999, "longitude": 8.8016936, "confirmed": 1653, "dead": 49, "recovered": null, "updated": "2020-06-26 06:32:46.221559+00:00"}, {"location": "Louisiana", "country_code": "us", "latitude": 30.9842977, "longitude": -91.96233269999999, "confirmed": 136860, "dead": 4430, "recovered": null, "updated": "2020-08-15 11:16:46.224747+00:00"}, {"location": "Michigan", "country_code": "us", "latitude": 44.3148443, "longitude": -85.60236429999999, "confirmed": 101831, "dead": 6586, "recovered": null, "updated": "2020-08-15 11:16:46.224747+00:00"}, {"location": "Auvergne-Rh\u00f4ne-Alpes", "country_code": "fr", "latitude": 45.4471431, "longitude": 4.385250699999999, "confirmed": 10249, "dead": 1768, "recovered": 8199, "updated": "2020-08-16 11:18:38.775958+00:00"}, {"location": "Texas", "country_code": "us", "latitude": 31.9685988, "longitude": -99.9018131, "confirmed": 552828, "dead": 10373, "recovered": null, "updated": "2020-08-15 11:16:46.224747+00:00"}, {"location": "Virginia", "country_code": "us", "latitude": 37.4315734, "longitude": -78.6568942, "confirmed": 105750, "dead": 2381, "recovered": null, "updated": "2020-08-15 11:16:46.224747+00:00"}, {"location": "Bourgogne-Franche-Comt\u00e9", "country_code": "fr", "latitude": 47.2805127, "longitude": 4.9994372, "confirmed": 5170, "dead": 1062, "recovered": 4077, "updated": "2020-08-16 11:18:38.780697+00:00"}, {"location": "Provence-Alpes-C\u00f4te d'Azur", "country_code": "fr", "latitude": 43.9351691, "longitude": 6.0679194, "confirmed": 7262, "dead": 971, "recovered": 5959, "updated": "2020-08-16 11:18:38.789272+00:00"}, {"location": "Hauts-de-France", "country_code": "fr", "latitude": 50.48011529999999, "longitude": 2.7937265, "confirmed": 9536, "dead": 1930, "recovered": 7118, "updated": "2020-08-16 11:18:38.790223+00:00"}, {"location": "Sachsen-Anhalt", "country_code": "de", "latitude": 51.9502649, "longitude": 11.6922734, "confirmed": 2123, "dead": 64, "recovered": null, "updated": "2020-08-16 11:19:06.625634+00:00"}, {"location": "Dadra and Nagar Haveli and Daman and Diu", "country_code": "in", "latitude": 20.399701, "longitude": 72.87599709999999, "confirmed": 28813, "dead": 0, "recovered": 82, "updated": "2020-07-01 06:48:22.696131+00:00"}, {"location": "Telangana", "country_code": "in", "latitude": 18.1124372, "longitude": 79.01929969999999, "confirmed": 163309, "dead": 260, "recovered": 7294, "updated": "2020-07-01 06:48:22.696131+00:00"}, {"location": "Alabama", "country_code": "us", "latitude": 32.3182314, "longitude": -86.902298, "confirmed": 107580, "dead": 1896, "recovered": null, "updated": "2020-08-15 11:16:46.224747+00:00"}, {"location": "Arizona", "country_code": "us", "latitude": 34.0489281, "longitude": -111.0937311, "confirmed": 192670, "dead": 4497, "recovered": null, "updated": "2020-08-15 11:16:46.224747+00:00"}, {"location": "Idaho", "country_code": "us", "latitude": 44.0682019, "longitude": -114.7420408, "confirmed": 27620, "dead": 269, "recovered": null, "updated": "2020-08-15 11:16:46.224747+00:00"}, {"location": "Ontario", "country_code": "ca", "latitude": 51.253775, "longitude": -85.323214, "confirmed": 40565, "dead": 2789, "recovered": null, "updated": "2020-08-15 00:00:00+00:00"}, {"location": "Prince Edward Island", "country_code": "ca", "latitude": 46.510712, "longitude": -63.41681359999999, "confirmed": 41, "dead": 0, "recovered": null, "updated": "2020-08-15 00:00:00+00:00"}, {"location": "Yukon", "country_code": "ca", "latitude": 64.2823274, "longitude": -135.0, "confirmed": 15, "dead": 0, "recovered": null, "updated": "2020-08-15 00:00:00+00:00"}, {"location": "Hessen", "country_code": "de", "latitude": 50.6520515, "longitude": 9.162437599999999, "confirmed": 13433, "dead": 526, "recovered": null, "updated": "2020-08-16 11:19:06.523032+00:00"}, {"location": "Niedersachsen", "country_code": "de", "latitude": 52.6367036, "longitude": 9.8450766, "confirmed": 15384, "dead": 656, "recovered": null, "updated": "2020-08-16 11:19:06.551959+00:00"}, {"location": "Rheinland-Pfalz", "country_code": "de", "latitude": 50.118346, "longitude": 7.3089527, "confirmed": 8121, "dead": 242, "recovered": null, "updated": "2020-08-16 11:19:06.583190+00:00"}, {"location": "Nordrhein-Westfalen*", "country_code": "de", "latitude": 51.43323669999999, "longitude": 7.661593799999999, "confirmed": 39777, "dead": 1658, "recovered": null, "updated": "2020-06-19 06:34:13.021124+00:00"}, {"location": "Sachsen", "country_code": "de", "latitude": 51.1045407, "longitude": 13.2017384, "confirmed": 5730, "dead": 225, "recovered": null, "updated": "2020-08-16 11:19:06.612220+00:00"}, {"location": "Jammu and Kashmir", "country_code": "in", "latitude": 33.778175, "longitude": 76.57617139999999, "confirmed": 17497, "dead": 101, "recovered": 4722, "updated": "2020-07-01 06:48:22.696131+00:00"}, {"location": "Jharkhand", "country_code": "in", "latitude": 23.6101808, "longitude": 85.2799354, "confirmed": 2490, "dead": 15, "recovered": 1884, "updated": "2020-07-01 06:48:22.696131+00:00"}, {"location": "Karnataka", "country_code": "in", "latitude": 15.3172775, "longitude": 75.7138884, "confirmed": 252942, "dead": 246, "recovered": 7918, "updated": "2020-07-01 06:48:22.696131+00:00"}, {"location": "Kerala", "country_code": "in", "latitude": 10.8505159, "longitude": 76.2710833, "confirmed": 444802, "dead": 24, "recovered": 2306, "updated": "2020-07-01 06:48:22.696131+00:00"}, {"location": "Ladakh", "country_code": "in", "latitude": 34.1599959, "longitude": 77.581808, "confirmed": 11973, "dead": 1, "recovered": 648, "updated": "2020-07-01 06:48:22.696131+00:00"}, {"location": "Florida", "country_code": "us", "latitude": 27.6648274, "longitude": -81.5157535, "confirmed": 569637, "dead": 9345, "recovered": 0, "updated": "2020-08-14 11:16:47.650599+00:00"}, {"location": "Georgia", "country_code": "us", "latitude": 32.1656221, "longitude": -82.9000751, "confirmed": 235168, "dead": 4669, "recovered": 0, "updated": "2020-08-14 11:16:47.650599+00:00"}, {"location": "Hawaii", "country_code": "us", "latitude": 19.8967662, "longitude": -155.5827818, "confirmed": 4825, "dead": 40, "recovered": 0, "updated": "2020-08-14 11:16:47.650599+00:00"}, {"location": "South Carolina", "country_code": "us", "latitude": 33.836081, "longitude": -81.1637245, "confirmed": 105882, "dead": 2260, "recovered": null, "updated": "2020-08-15 11:16:46.224747+00:00"}, {"location": "Utah", "country_code": "us", "latitude": 39.3209801, "longitude": -111.0937311, "confirmed": 46413, "dead": 364, "recovered": null, "updated": "2020-08-15 11:16:46.224747+00:00"}]}